[
    {
      "id": 1,
      "region": "九龍",
      "shopName": "豉油街28號分店",
      "address": "豉油街28號地下",
      "phone": 23457890,
      "openingHour": "11:00AM-10:00PM (星期一至日)",
      "lat": 22.31666921,
      "lng": 114.1707795
    },
    {
      "id": 2,
      "region": "九龍",
      "shopName": "創紀之城分店",
      "address": "創紀之城第五期APM五樓Xsite2",
      "phone": 25686123,
      "openingHour": "11:00AM-10:00PM (星期一至日)",
      "lat": 22.31244577,
      "lng": 114.2251802
    },
    {
      "id": 3,
      "region": "九龍",
      "shopName": "德福廣場分店(第一期G44號舖)",
      "address": "德福廣場第一期G44號舖",
      "phone": 21903242,
      "openingHour": "11:00AM-10:00PM (星期一至日)",
      "lat": 22.3250998,
      "lng": 114.2133356
    },
    {
      "id": 4,
      "region": "九龍",
      "shopName": "德福廣場分店(第一期G22號舖)",
      "address": "德福廣場第一期G22號舖",
      "phone": 27345377,
      "openingHour": "11:00AM-10:00PM (星期一至日)",
      "lat": 22.3250998,
      "lng": 114.2133356
    },
    {
      "id": 5,
      "region": "九龍",
      "shopName": "西洋菜南街78號分店",
      "address": "西洋菜南街78號地下",
      "phone": 29094344,
      "openingHour": "11:00AM-10:00PM (星期一至日)",
      "lat": 22.31913386,
      "lng": 114.1703016
    },
    {
      "id": 6,
      "region": "九龍",
      "shopName": "西洋菜南街80號分店",
      "address": "西洋菜南街80號地下",
      "phone": 22224344,
      "openingHour": "11:00AM-10:00PM (星期一至日)",
      "lat": 22.31903711,
      "lng": 114.1702027
    },
    {
      "id": 7,
      "region": "九龍",
      "shopName": "海港城海洋中心分店",
      "address": "海港城海洋中心三階341號舖",
      "phone": 23224440,
      "openingHour": "11:00AM-10:00PM (星期一至日)",
      "lat": 22.29562594,
      "lng": 114.1685127
    },
    {
      "id": 8,
      "region": "九龍",
      "shopName": "荷里活廣場分店",
      "address": "荷里活廣場二樓202號舖",
      "phone": 23414423,
      "openingHour": "11:00AM-10:00PM (星期一至日)",
      "lat": 22.34100968,
      "lng": 114.2019861
    },
    {
      "id": 9,
      "region": "香港島",
      "shopName": "時代廣場分店",
      "address": "銅鑼灣時代廣場814號舖",
      "phone": 21343353,
      "openingHour": "11:00AM-10:00PM (星期一至日)",
      "lat": 22.27834954,
      "lng": 114.1822102
    },
    {
      "id": 10,
      "region": "香港島",
      "shopName": "太古城中心分店",
      "address": "太古城中心4樓410號舖",
      "phone": 25635551,
      "openingHour": "11:00AM-10:00PM (星期一至日)",
      "lat": 22.2868004,
      "lng": 114.2174985
    },
    {
      "id": 11,
      "region": "香港島",
      "shopName": "百德新街分店(地下)",
      "address": "銅鑼灣百德新街恒隆中心地下",
      "phone": 21243386,
      "openingHour": "11:00AM-10:00PM (星期一至日)",
      "lat": 22.28047072,
      "lng": 114.1863304
    },
    {
      "id": 12,
      "region": "香港島",
      "shopName": "百德新街分店 (地庫)",
      "address": "銅鑼灣百德新街恒隆中心地庫",
      "phone": 25357845,
      "openingHour": "11:00AM-10:00PM (星期一至日)",
      "lat": 22.28040846,
      "lng": 114.1863011
    },
    {
      "id": 13,
      "region": "新界",
      "shopName": "青衣城分店",
      "address": "青衣青衣城一樓136號舖",
      "phone": 24755909,
      "openingHour": "11:00AM-10:00PM (星期一至日)",
      "lat": 22.35614831,
      "lng": 114.1071607
    },
    {
      "id": 14,
      "region": "新界",
      "shopName": "屯門市廣場分店(G17號舖)",
      "address": "屯門市廣場第一期地下G17號舖",
      "phone": 21234351,
      "openingHour": "11:00AM-10:00PM (星期一至日)",
      "lat": 22.39385038,
      "lng": 113.9763811
    },
    {
      "id": 15,
      "region": "新界",
      "shopName": "屯門市廣場分店(G031號舖)",
      "address": "屯門市廣場分店(G031號舖)",
      "phone": 28461436,
      "openingHour": "11:00AM-10:00PM (星期一至日)",
      "lat": 22.39385038,
      "lng": 113.9763811
    },
    {
      "id": 16,
      "region": "新界",
      "shopName": "上水新都廣場分店",
      "address": "上水新都廣場二樓211號舖",
      "phone": 20879321,
      "openingHour": "10:45AM-09:30PM (星期一至日)",
      "lat": 22.5021657,
      "lng": 114.1292903
    },
    {
      "id": 17,
      "region": "新界",
      "shopName": "荃灣眾安街分店",
      "address": "眾安街43號地下至二樓",
      "phone": 21414465,
      "openingHour": "11:00AM-10:00PM (星期一至日)",
      "lat": 22.37003899,
      "lng": 114.1168571
    },
    {
      "id": 18,
      "region": "新界",
      "shopName": "沙田新城市廣場分店",
      "address": "新城市廣場第一期六樓612-613號舖",
      "phone": 24553767,
      "openingHour": "11:00AM-10:00PM (星期一至日)",
      "lat": 22.38213298,
      "lng": 114.1886241
    },
    {
      "id": 19,
      "region": "新界",
      "shopName": "元朗樂成大廈分店",
      "address": "教育路16號樂成大廈A-C及D7舖地下至三樓",
      "phone": 23156633,
      "openingHour": "11:00AM-10:00PM (星期一至日)",
      "lat": 22.443325,
      "lng": 114.0281808
    },
    {
      "id": 20,
      "region": "新界",
      "shopName": "將軍澳東港城分店",
      "address": "東港城2樓218號舖",
      "phone": 27475993,
      "openingHour": "11:00AM-09:00PM (星期一至日)",
      "lat": 22.3162974,
      "lng": 114.2650593
    }
  ]